[
    {
        "type": "event",
        "title": "Llegada y trámites en CDG",
        "start": "2026-08-03T09:00:00",
        "end": "2026-08-03T11:00:00",
        "color": "blue",
        "location": "Aeropuerto Charles de Gaulle (CDG)",
        "coordinates": {
            "lat": 49.0097,
            "lng": 2.5478
        },
        "notes": "Inmigración y equipaje",
        "timezone": "Europe/Paris"
    },
    {
        "type": "event",
        "title": "Traslado y check-in en el Airbnb",
        "start": "2026-08-03T11:00:00",
        "end": "2026-08-03T12:30:00",
        "color": "green",
        "location": "Airbnb: 23 Boulevard de Brandebourg, Ivry-sur-Seine",
        "coordinates": {
            "lat": 48.8128,
            "lng": 2.388
        },
        "timezone": "Europe/Paris",
        "confirmed": true,
        "notes": "✅ Airbnb reservado (3–7 ago). Está en Ivry-sur-Seine, sureste de París: metro M7 (Mairie d'Ivry) o RER C. Desde CDG ~1h en RER B + M7, o taxi/van"
    },
    {
        "type": "event",
        "title": "Notre-Dame y Sainte-Chapelle",
        "start": "2026-08-03T13:30:00",
        "end": "2026-08-03T16:00:00",
        "color": "indigo",
        "location": "Île de la Cité, París",
        "coordinates": {
            "lat": 48.855,
            "lng": 2.3475
        },
        "notes": "Tarde suave tras el vuelo. Exterior de Notre-Dame (reabierta; reserva gratis si entran) y vidrieras de la Sainte-Chapelle 🎟️",
        "timezone": "Europe/Paris",
        "confirmed": false
    },
    {
        "type": "event",
        "title": "Barrio Latino y orillas del Sena",
        "start": "2026-08-03T16:15:00",
        "end": "2026-08-03T18:00:00",
        "color": "indigo",
        "location": "Barrio Latino, París",
        "coordinates": {
            "lat": 48.8508,
            "lng": 2.3441
        },
        "notes": "Paseo libre: Shakespeare & Company, Panthéon por fuera, orillas del Sena",
        "timezone": "Europe/Paris"
    },
    {
        "type": "event",
        "title": "Atardecer en Sacré-Cœur (Montmartre)",
        "start": "2026-08-04T19:00:00",
        "end": "2026-08-04T21:00:00",
        "color": "indigo",
        "location": "Basílica del Sacré-Cœur, París",
        "coordinates": {
            "lat": 48.8867,
            "lng": 2.3431
        },
        "notes": "Omar, Lucy y Yessenia (Diego y Adriana cenan con Alex). Opcional si hay energía",
        "timezone": "Europe/Paris"
    },
    {
        "type": "event",
        "title": "(Diego y Adriana) Cena con Alex",
        "start": "2026-08-04T19:00:00",
        "end": "2026-08-04T21:00:00",
        "color": "emerald",
        "location": "París",
        "coordinates": {
            "lat": 48.8566,
            "lng": 2.3522
        },
        "notes": "Solo Diego y Adriana; en paralelo, el resto va al atardecer en Sacré-Cœur. Lugar por definir con Alex",
        "timezone": "Europe/Paris"
    },
    {
        "type": "event",
        "title": "Tour del Estadio Roland Garros",
        "start": "2026-08-04T13:30:00",
        "end": "2026-08-04T15:30:00",
        "color": "amber",
        "location": "Stade Roland-Garros, París",
        "coordinates": {
            "lat": 48.8472,
            "lng": 2.2511
        },
        "notes": "🎟️ Reservar el tour del estadio (no el museo) — turno 13:30, no hay horarios por la mañana. Canchas Philippe-Chatrier y Lenglen. ⭐ Diego, Omar, Lucy y Adriana (tenis)",
        "timezone": "Europe/Paris",
        "confirmed": false
    },
    {
        "type": "event",
        "title": "Torre Eiffel, Trocadéro y Campo de Marte",
        "start": "2026-08-04T09:30:00",
        "end": "2026-08-04T12:30:00",
        "color": "indigo",
        "location": "Torre Eiffel, París",
        "coordinates": {
            "lat": 48.8584,
            "lng": 2.2945
        },
        "notes": "🎟️ Reservar acceso. Fotos en Trocadéro. Por la mañana para dejar la tarde libre (Roland Garros 13:30). (El Louvre cierra los martes)",
        "timezone": "Europe/Paris",
        "confirmed": false
    },
    {
        "type": "event",
        "title": "Arco del Triunfo y Campos Elíseos",
        "start": "2026-08-04T16:30:00",
        "end": "2026-08-04T18:30:00",
        "color": "indigo",
        "location": "Arco del Triunfo, París",
        "coordinates": {
            "lat": 48.8738,
            "lng": 2.295
        },
        "timezone": "Europe/Paris"
    },
    {
        "type": "event",
        "title": "Paseo en barco por el Sena (Bateaux-Mouches)",
        "start": "2026-08-03T20:30:00",
        "end": "2026-08-03T22:00:00",
        "color": "cyan",
        "location": "Bateaux-Mouches, París",
        "coordinates": {
            "lat": 48.8637,
            "lng": 2.3045
        },
        "timezone": "Europe/Paris",
        "confirmed": false
    },
    {
        "type": "event",
        "title": "Museo del Louvre",
        "start": "2026-08-05T09:30:00",
        "end": "2026-08-05T13:00:00",
        "color": "purple",
        "location": "Museo del Louvre, París",
        "coordinates": {
            "lat": 48.8606,
            "lng": 2.3376
        },
        "notes": "🎟️ Ruta de imprescindibles: Gioconda, Victoria de Samotracia, Venus de Milo. Audioguía en español. ⭐ Yessenia (arte)",
        "timezone": "Europe/Paris",
        "confirmed": false
    },
    {
        "type": "event",
        "title": "Musée d'Histoire de la Médecine",
        "start": "2026-08-05T14:30:00",
        "end": "2026-08-05T15:30:00",
        "color": "purple",
        "location": "Musée d'Histoire de la Médecine, París",
        "coordinates": {
            "lat": 48.8525,
            "lng": 2.3399
        },
        "notes": "Solo tardes, abre miércoles. ⭐ Omar y Lucy (medicina). ~1h",
        "timezone": "Europe/Paris"
    },
    {
        "type": "event",
        "title": "Musée d'Orsay",
        "start": "2026-08-05T16:00:00",
        "end": "2026-08-05T18:00:00",
        "color": "purple",
        "location": "Musée d'Orsay, París",
        "coordinates": {
            "lat": 48.86,
            "lng": 2.3266
        },
        "notes": "🎟️ Reservar. Impresionistas: Monet, Van Gogh, Renoir. Última entrada 17:00, cierra 18:00 (miércoles). ⭐ Yessenia (arte)",
        "timezone": "Europe/Paris",
        "confirmed": false
    },
    {
        "type": "event",
        "title": "Le Marais: boutiques y vintage",
        "start": "2026-08-05T18:30:00",
        "end": "2026-08-05T20:30:00",
        "color": "pink",
        "location": "Le Marais, París",
        "coordinates": {
            "lat": 48.859,
            "lng": 2.362
        },
        "notes": "⭐ Yessenia (moda): boutiques y vintage. Cena por la zona (falafel en Rue des Rosiers)",
        "timezone": "Europe/Paris"
    },
    {
        "type": "event",
        "title": "Palacio de Versalles (día completo)",
        "start": "2026-08-06T09:00:00",
        "end": "2026-08-06T16:00:00",
        "color": "indigo",
        "location": "Palacio de Versalles",
        "coordinates": {
            "lat": 48.8049,
            "lng": 2.1204
        },
        "notes": "🎟️ RER C (~40 min). Salón de los Espejos, Jardines (fuentes), Trianón, finca de María Antonieta. ⭐ Omar (historia). Cierra lunes. Ir temprano (alta temporada)",
        "timezone": "Europe/Paris",
        "confirmed": false
    },
    {
        "type": "event",
        "title": "Cena tranquila en París",
        "start": "2026-08-06T18:30:00",
        "end": "2026-08-06T20:30:00",
        "color": "emerald",
        "location": "París",
        "coordinates": {
            "lat": 48.8566,
            "lng": 2.3522
        },
        "timezone": "Europe/Paris"
    },
    {
        "type": "event",
        "title": "Check-out del Airbnb",
        "start": "2026-08-07T07:45:00",
        "end": "2026-08-07T08:15:00",
        "color": "green",
        "location": "Airbnb: 23 Boulevard de Brandebourg, Ivry-sur-Seine",
        "coordinates": {
            "lat": 48.8128,
            "lng": 2.388
        },
        "notes": "Límite del Airbnb: 9:00. A Gare du Nord ~40 min: M7 directo desde Mairie d'Ivry hasta Gare de l'Est + 5 min a pie",
        "timezone": "Europe/Paris"
    },
    {
        "type": "event",
        "title": "Tren París → Bruselas",
        "start": "2026-08-07T09:15:00",
        "end": "2026-08-07T10:40:00",
        "color": "orange",
        "location": "Gare du Nord, París",
        "coordinates": {
            "lat": 48.8809,
            "lng": 2.3553
        },
        "notes": "🎟️ Eurostar (~1h25). Llega a Bruxelles-Midi ~10:40 — empalma con el check-in de las 11:00",
        "timezone": "Europe/Paris",
        "confirmed": false
    },
    {
        "type": "event",
        "title": "Check-in en Craves Hotel",
        "color": "green",
        "timezone": "Europe/Brussels",
        "location": "Craves Hotel, Rue Marché aux Poulets 32, Bruselas",
        "start": "2026-08-07T11:15:00",
        "end": "2026-08-07T12:00:00",
        "coordinates": {
            "lat": 50.8493,
            "lng": 4.3499
        },
        "confirmed": true,
        "notes": "✅ Hotel reservado (7–9 ago). Check-in desde las 11:00 — llegando con el tren de las 10:40 entran directo. A 5 min a pie de la Grand-Place"
    },
    {
        "type": "event",
        "title": "Grand-Place, Manneken Pis y Galerías Saint-Hubert",
        "color": "indigo",
        "timezone": "Europe/Brussels",
        "location": "Grand-Place, Bruselas",
        "start": "2026-08-07T12:15:00",
        "end": "2026-08-07T14:30:00",
        "coordinates": {
            "lat": 50.8467,
            "lng": 4.3525
        },
        "notes": "Almuerzo por la zona + waffles y chocolate"
    },
    {
        "type": "event",
        "title": "Parlamentarium",
        "start": "2026-08-07T15:00:00",
        "end": "2026-08-07T16:30:00",
        "color": "purple",
        "location": "Parlamentarium, Bruselas",
        "coordinates": {
            "lat": 50.8385,
            "lng": 4.3776
        },
        "notes": "Gratis. Centro de visitantes del Parlamento Europeo. ⭐ Lucy (política)",
        "timezone": "Europe/Brussels"
    },
    {
        "type": "event",
        "title": "Casa de la Historia Europea",
        "start": "2026-08-07T16:45:00",
        "end": "2026-08-07T18:00:00",
        "color": "purple",
        "location": "Casa de la Historia Europea, Bruselas",
        "coordinates": {
            "lat": 50.8391,
            "lng": 4.3739
        },
        "notes": "Gratis, cierra 18:00. En el Parque Léopold, a 5 min del Parlamentarium",
        "timezone": "Europe/Brussels"
    },
    {
        "type": "event",
        "title": "Tren Bruselas → Brujas",
        "color": "orange",
        "timezone": "Europe/Brussels",
        "location": "Bruxelles-Midi",
        "start": "2026-08-08T08:30:00",
        "end": "2026-08-08T09:30:00",
        "coordinates": {
            "lat": 50.8358,
            "lng": 4.3367
        },
        "notes": "~1h, cada hora, sin reserva. Salir temprano: hoy es Brujas + Gante"
    },
    {
        "type": "event",
        "title": "Brujas esencial: Markt, Belfort y Basílica de la Santa Sangre",
        "start": "2026-08-08T09:50:00",
        "end": "2026-08-08T11:20:00",
        "color": "indigo",
        "location": "Markt, Brujas",
        "coordinates": {
            "lat": 51.2086,
            "lng": 3.2247
        },
        "notes": "Markt y Belfort por fuera (la subida toma 1h+ con cola — se omite para que quepa Gante), Burg y Basílica de la Santa Sangre (gratis). Chocolate en Dumon, junto al Markt. ~20 min a pie desde la estación",
        "timezone": "Europe/Brussels"
    },
    {
        "type": "event",
        "title": "Paseo en bote por los canales de Brujas",
        "start": "2026-08-08T11:30:00",
        "end": "2026-08-08T12:30:00",
        "color": "cyan",
        "location": "Canales de Brujas",
        "coordinates": {
            "lat": 51.2078,
            "lng": 3.2266
        },
        "notes": "~30 min de bote + cola. Se compra en el muelle, no se reserva con anticipación",
        "timezone": "Europe/Brussels"
    },
    {
        "type": "event",
        "title": "Begijnhof, Minnewater y almuerzo",
        "start": "2026-08-08T12:30:00",
        "end": "2026-08-08T13:45:00",
        "color": "indigo",
        "location": "Begijnhof, Brujas",
        "coordinates": {
            "lat": 51.201,
            "lng": 3.224
        },
        "notes": "Begijnhof y lago Minnewater quedan camino a la estación. Almuerzo rápido (frites/waffle) antes del tren",
        "timezone": "Europe/Brussels"
    },
    {
        "type": "event",
        "title": "Tren Brujas → Gante",
        "start": "2026-08-08T14:10:00",
        "end": "2026-08-08T14:40:00",
        "color": "orange",
        "location": "Estación de Brujas",
        "coordinates": {
            "lat": 51.1972,
            "lng": 3.2169
        },
        "notes": "~25 min, IC cada media hora, sin reserva. En Gent-Sint-Pieters: tranvía 1 al centro (~15 min)",
        "timezone": "Europe/Brussels"
    },
    {
        "type": "event",
        "title": "Catedral de San Bavón y el Cordero Místico",
        "start": "2026-08-08T15:15:00",
        "end": "2026-08-08T16:15:00",
        "color": "purple",
        "location": "Catedral de San Bavón, Gante",
        "coordinates": {
            "lat": 51.0536,
            "lng": 3.7264
        },
        "notes": "🎟️ La Adoración del Cordero Místico (Van Eyck) requiere entrada; la catedral es gratis. ⭐ Yessenia (arte)",
        "timezone": "Europe/Brussels",
        "confirmed": false
    },
    {
        "type": "event",
        "title": "Gante esencial: Graslei, Korenlei y Gravensteen",
        "start": "2026-08-08T16:30:00",
        "end": "2026-08-08T18:30:00",
        "color": "indigo",
        "location": "Graslei, Gante",
        "coordinates": {
            "lat": 51.0554,
            "lng": 3.7217
        },
        "notes": "Muelles medievales del Graslei/Korenlei, Belfort de Gante y castillo Gravensteen (🎟️ opcional, última entrada ~17:20). Cena ligera junto al agua",
        "timezone": "Europe/Brussels"
    },
    {
        "type": "event",
        "title": "Tren Gante → Bruselas",
        "start": "2026-08-08T18:50:00",
        "end": "2026-08-08T19:30:00",
        "color": "orange",
        "location": "Gent-Sint-Pieters",
        "coordinates": {
            "lat": 51.0357,
            "lng": 3.7107
        },
        "notes": "~35 min, salidas cada ~15 min, sin reserva",
        "timezone": "Europe/Brussels"
    },
    {
        "type": "event",
        "title": "Tren Bruselas → Ámsterdam",
        "color": "orange",
        "timezone": "Europe/Brussels",
        "location": "Bruxelles-Midi",
        "start": "2026-08-09T09:00:00",
        "end": "2026-08-09T11:00:00",
        "coordinates": {
            "lat": 50.8358,
            "lng": 4.3367
        },
        "notes": "🎟️ Eurostar/Intercity (~2h)",
        "confirmed": false
    },
    {
        "type": "event",
        "title": "Check-in en Chassé Boutique Hotel",
        "color": "green",
        "timezone": "Europe/Amsterdam",
        "start": "2026-08-09T12:00:00",
        "end": "2026-08-09T13:00:00",
        "location": "Chassé Boutique Hotel, Chasséstraat 62-64, Ámsterdam",
        "coordinates": {
            "lat": 52.3688,
            "lng": 4.8565
        },
        "confirmed": true,
        "notes": "✅ Hotel reservado: Chassé Boutique Hotel (De Baarsjes). Check-in desde las 12:00; si llegan antes pueden dejar las maletas. Tranvía desde Centraal (~25 min)"
    },
    {
        "type": "event",
        "title": "Paseo en barco por los canales",
        "color": "cyan",
        "timezone": "Europe/Amsterdam",
        "start": "2026-08-09T13:30:00",
        "end": "2026-08-09T15:00:00",
        "location": "Canales de Ámsterdam",
        "coordinates": {
            "lat": 52.3676,
            "lng": 4.9041
        },
        "confirmed": false
    },
    {
        "type": "event",
        "title": "Jordaan, Dam y vintage",
        "color": "pink",
        "timezone": "Europe/Amsterdam",
        "start": "2026-08-09T15:00:00",
        "end": "2026-08-09T18:00:00",
        "location": "Jordaan, Ámsterdam",
        "coordinates": {
            "lat": 52.3747,
            "lng": 4.8807
        },
        "notes": "⭐ Yessenia (vintage): Vintage of Amsterdam (Elandsgracht 41), Vindit Vintage. Begijnhof"
    },
    {
        "type": "event",
        "title": "Casa de Ana Frank",
        "color": "purple",
        "timezone": "Europe/Amsterdam",
        "start": "2026-08-10T09:00:00",
        "end": "2026-08-10T10:00:00",
        "location": "Casa de Ana Frank, Ámsterdam",
        "coordinates": {
            "lat": 52.3752,
            "lng": 4.884
        },
        "notes": "🎟️ Horario fijo, reservar ~6 semanas antes (se agota en minutos)",
        "confirmed": false
    },
    {
        "type": "event",
        "title": "Rijksmuseum",
        "start": "2026-08-10T10:30:00",
        "end": "2026-08-10T12:30:00",
        "color": "purple",
        "location": "Rijksmuseum, Ámsterdam",
        "coordinates": {
            "lat": 52.36,
            "lng": 4.8852
        },
        "notes": "🎟️ Reservar franja. La ronda de noche (Rembrandt), Vermeer. ⭐ Yessenia (arte)",
        "timezone": "Europe/Amsterdam",
        "confirmed": false
    },
    {
        "type": "event",
        "title": "Museo Van Gogh",
        "start": "2026-08-10T13:00:00",
        "end": "2026-08-10T14:30:00",
        "color": "purple",
        "location": "Museo Van Gogh, Ámsterdam",
        "coordinates": {
            "lat": 52.3584,
            "lng": 4.8811
        },
        "notes": "🎟️ Solo con entrada de horario (se agota, reservar). Al lado del Rijksmuseum. Almuerzo rápido en Museumplein antes",
        "timezone": "Europe/Amsterdam",
        "confirmed": false
    },
    {
        "type": "event",
        "title": "Museum Vrolik (anatómico)",
        "color": "purple",
        "timezone": "Europe/Amsterdam",
        "start": "2026-08-10T15:15:00",
        "end": "2026-08-10T16:45:00",
        "location": "Museum Vrolik, Ámsterdam",
        "coordinates": {
            "lat": 52.294,
            "lng": 4.956
        },
        "notes": "Lun–Vie 11:00–17:00, cierra 17:00. Metro 50/51 hasta Holendrecht (~35 min desde Museumplein). ⭐ Omar y Lucy (medicina)"
    },
    {
        "type": "event",
        "title": "Moco Museum",
        "start": "2026-08-10T17:30:00",
        "end": "2026-08-10T18:30:00",
        "color": "purple",
        "location": "Moco Museum, Ámsterdam",
        "coordinates": {
            "lat": 52.3586,
            "lng": 4.8816
        },
        "notes": "🎟️ Entrada con horario. Banksy y arte moderno. Abre hasta tarde en verano. ⭐ Yessenia",
        "timezone": "Europe/Amsterdam",
        "confirmed": false
    },
    {
        "type": "event",
        "title": "De Pijp y Vondelpark",
        "start": "2026-08-10T18:45:00",
        "end": "2026-08-10T20:30:00",
        "color": "pink",
        "location": "De Pijp, Ámsterdam",
        "coordinates": {
            "lat": 52.356,
            "lng": 4.892
        },
        "notes": "⭐ Yessenia: vintage en De Pijp + cena por ahí. Vondelpark si queda energía",
        "timezone": "Europe/Amsterdam"
    },
    {
        "type": "event",
        "title": "Vuelo Ámsterdam (AMS) → Milán",
        "color": "orange",
        "timezone": "Europe/Amsterdam",
        "start": "2026-08-11T10:20:00",
        "end": "2026-08-11T12:00:00",
        "location": "Aeropuerto de Schiphol (AMS)",
        "coordinates": {
            "lat": 52.3105,
            "lng": 4.7683
        },
        "notes": "✅ Reservado. Sale de Schiphol 10:20, aterriza en Linate (LIN) 12:00. 🛂 Guardar pases de abordar (prueba de ingreso a Italia)",
        "confirmed": true
    },
    {
        "type": "event",
        "title": "Check-in en Milán",
        "color": "green",
        "timezone": "Europe/Rome",
        "start": "2026-08-11T13:00:00",
        "end": "2026-08-11T14:00:00",
        "location": "Airbnb: Via Roncaglia 13, Milán",
        "coordinates": {
            "lat": 45.456,
            "lng": 9.153
        },
        "notes": "✅ Airbnb reservado (11–14 ago). Zona Piazza Napoli/Solari. Traslado desde Linate ~40 min (taxi o bus 73 + metro)",
        "confirmed": true
    },
    {
        "type": "marker",
        "title": "🛂 Inicio del plazo del permesso di soggiorno",
        "color": "blue",
        "timezone": "Europe/Rome",
        "date": "2026-08-11T14:00:00",
        "location": "Milán",
        "coordinates": {
            "lat": 45.4642,
            "lng": 9.19
        },
        "notes": "Diego y Adriana: el plazo de 8 días laborables corre desde el ingreso a Italia (hoy). Guarden los pases AMS→Milán como prueba"
    },
    {
        "type": "event",
        "title": "Museo y Tour del Estadio San Siro",
        "color": "amber",
        "timezone": "Europe/Rome",
        "start": "2026-08-11T14:30:00",
        "end": "2026-08-11T16:00:00",
        "location": "Stadio Giuseppe Meazza (San Siro), Milán",
        "coordinates": {
            "lat": 45.4781,
            "lng": 9.124
        },
        "notes": "🎟️ Reservar Museo y Tour de San Siro (abierto todos los días; abr–oct 9:30–18:00, última entrada/taquilla 18:00). Tour ~60 min: vestuarios del Milan y el Inter, zona mixta y túnel a la cancha. Metro M5 hasta San Siro Stadio. ⭐ Omar (fútbol), divertido aunque no seas hincha",
        "confirmed": false
    },
    {
        "type": "event",
        "title": "Duomo, terrazas y Galería Vittorio Emanuele II",
        "color": "indigo",
        "timezone": "Europe/Rome",
        "start": "2026-08-11T16:30:00",
        "end": "2026-08-11T18:30:00",
        "location": "Duomo de Milán",
        "coordinates": {
            "lat": 45.4641,
            "lng": 9.1919
        },
        "notes": "🎟️ Suban a las terrazas del Duomo. Piazza della Scala",
        "confirmed": false
    },
    {
        "type": "event",
        "title": "Cena de bienvenida (cocina milanesa)",
        "color": "emerald",
        "timezone": "Europe/Rome",
        "start": "2026-08-11T20:00:00",
        "end": "2026-08-11T22:00:00",
        "location": "Milán",
        "coordinates": {
            "lat": 45.4642,
            "lng": 9.19
        },
        "notes": "Al Matarel o Trattoria Milanese (ossobuco + risotto allo zafferano). Reservar. ⭐ Adriana (gastronomía)",
        "confirmed": false
    },
    {
        "type": "event",
        "title": "Trámite del permesso di soggiorno (kit postal)",
        "color": "blue",
        "timezone": "Europe/Rome",
        "start": "2026-08-12T09:00:00",
        "end": "2026-08-12T10:30:00",
        "location": "Oficina de Correos con Sportello Amico, Milán",
        "coordinates": {
            "lat": 45.4654,
            "lng": 9.1866
        },
        "notes": "🛂 Diego y Adriana presentan el kit postal (busta gialla). Lleven: pasaporte+visa, codice fiscale, 4 fotos, constancia Polimi, prueba de alojamiento, seguro médico, marca da bollo €16 y tasas. Plan B: 14 temprano o 20"
    },
    {
        "type": "event",
        "title": "Basílica de Santa Maria delle Grazie",
        "color": "indigo",
        "timezone": "Europe/Rome",
        "start": "2026-08-12T11:00:00",
        "end": "2026-08-12T11:30:00",
        "location": "Santa Maria delle Grazie, Milán",
        "coordinates": {
            "lat": 45.4659,
            "lng": 9.1709
        },
        "notes": "Iglesia del Cenacolo. Ábside y claustro de Bramante. Gratis (~20–30 min)"
    },
    {
        "type": "event",
        "title": "Museo de la Ciencia y la Tecnología Leonardo da Vinci",
        "color": "purple",
        "timezone": "Europe/Rome",
        "start": "2026-08-12T11:45:00",
        "end": "2026-08-12T13:45:00",
        "location": "Museo Leonardo da Vinci, Milán",
        "coordinates": {
            "lat": 45.462,
            "lng": 9.1709
        },
        "notes": "🎟️ El más grande de Italia: máquinas de Leonardo, submarino. ⭐ Diego (tech)",
        "confirmed": false
    },
    {
        "type": "event",
        "title": "Castello Sforzesco y Parque Sempione",
        "color": "indigo",
        "timezone": "Europe/Rome",
        "start": "2026-08-12T14:30:00",
        "end": "2026-08-12T16:00:00",
        "location": "Castello Sforzesco, Milán",
        "coordinates": {
            "lat": 45.4705,
            "lng": 9.1791
        }
    },
    {
        "type": "event",
        "title": "Pinacoteca di Brera",
        "start": "2026-08-12T16:15:00",
        "end": "2026-08-12T17:45:00",
        "color": "purple",
        "location": "Pinacoteca di Brera, Milán",
        "coordinates": {
            "lat": 45.4719,
            "lng": 9.1881
        },
        "notes": "🎟️ El beso de Hayez, Mantegna, Caravaggio. ⭐ Yessenia (arte). Alternativa: Museo del Novecento",
        "timezone": "Europe/Rome",
        "confirmed": false
    },
    {
        "type": "event",
        "title": "Quadrilatero della Moda y vintage en Brera",
        "start": "2026-08-12T18:00:00",
        "end": "2026-08-12T19:15:00",
        "color": "pink",
        "location": "Via Montenapoleone, Milán",
        "coordinates": {
            "lat": 45.4685,
            "lng": 9.1953
        },
        "notes": "⭐ Yessenia (moda): Via Montenapoleone + vintage en Brera (Urzì, Cavalli e Nastri)",
        "timezone": "Europe/Rome"
    },
    {
        "type": "event",
        "title": "Aperitivo en los Navigli",
        "color": "emerald",
        "timezone": "Europe/Rome",
        "start": "2026-08-12T19:30:00",
        "end": "2026-08-12T21:30:00",
        "location": "Navigli, Milán",
        "coordinates": {
            "lat": 45.4509,
            "lng": 9.173
        },
        "notes": "⭐ Adriana"
    },
    {
        "type": "event",
        "title": "Tren Milán → Varenna",
        "color": "orange",
        "timezone": "Europe/Rome",
        "start": "2026-08-13T08:30:00",
        "end": "2026-08-13T09:30:00",
        "location": "Milano Centrale",
        "coordinates": {
            "lat": 45.4863,
            "lng": 9.2049
        },
        "notes": "~1h. Excursión al Lago de Como"
    },
    {
        "type": "event",
        "title": "Varenna y Villa Monastero",
        "start": "2026-08-13T09:30:00",
        "end": "2026-08-13T12:30:00",
        "color": "indigo",
        "location": "Varenna, Lago de Como",
        "coordinates": {
            "lat": 46.0102,
            "lng": 9.2849
        },
        "notes": "Pueblo, passeggiata degli innamorati y jardines de Villa Monastero. ⭐ Omar (geografía)",
        "timezone": "Europe/Rome"
    },
    {
        "type": "event",
        "title": "Ferry a Bellagio y paseo",
        "start": "2026-08-13T12:45:00",
        "end": "2026-08-13T17:00:00",
        "color": "cyan",
        "location": "Bellagio, Lago de Como",
        "coordinates": {
            "lat": 45.9866,
            "lng": 9.261
        },
        "notes": "Ferry Varenna→Bellagio (~15 min, se compra en el muelle). Almuerzo y paseo por Bellagio; opcional Menaggio. Día tranquilo. Ferry de vuelta a Varenna para el tren",
        "timezone": "Europe/Rome"
    },
    {
        "type": "event",
        "title": "Regreso a Milán",
        "color": "orange",
        "timezone": "Europe/Rome",
        "start": "2026-08-13T17:30:00",
        "end": "2026-08-13T18:30:00",
        "location": "Varenna",
        "coordinates": {
            "lat": 46.0102,
            "lng": 9.2849
        }
    },
    {
        "type": "event",
        "title": "Tren Milán → Florencia",
        "color": "orange",
        "timezone": "Europe/Rome",
        "start": "2026-08-14T07:00:00",
        "end": "2026-08-14T09:00:00",
        "location": "Milano Centrale",
        "coordinates": {
            "lat": 45.4863,
            "lng": 9.2049
        },
        "notes": "🎟️ Frecciarossa/Italo (~1h50). Diego y Adriana dejan sus maletas grandes en Milán",
        "confirmed": false
    },
    {
        "type": "event",
        "title": "Check-in y dejar maletas en Florencia",
        "color": "green",
        "timezone": "Europe/Rome",
        "start": "2026-08-14T09:15:00",
        "end": "2026-08-14T10:00:00",
        "location": "Airbnb: Via Fiume 1, Florencia",
        "coordinates": {
            "lat": 43.7776,
            "lng": 11.2513
        },
        "confirmed": true,
        "notes": "✅ Airbnb reservado (14–17 ago). A 5 min a pie de la estación Santa Maria Novella — perfecto para los trenes a Pisa, Venecia y Roma"
    },
    {
        "type": "event",
        "title": "Galería Uffizi",
        "color": "purple",
        "timezone": "Europe/Rome",
        "start": "2026-08-14T10:00:00",
        "end": "2026-08-14T12:30:00",
        "location": "Galería Uffizi, Florencia",
        "coordinates": {
            "lat": 43.7678,
            "lng": 11.2553
        },
        "notes": "🎟️ Botticelli (El nacimiento de Venus, La primavera), Da Vinci, Caravaggio. ⭐ Yessenia. Cierra lunes",
        "confirmed": false
    },
    {
        "type": "event",
        "title": "Galería de la Accademia (el David)",
        "color": "purple",
        "timezone": "Europe/Rome",
        "start": "2026-08-14T13:30:00",
        "end": "2026-08-14T14:30:00",
        "location": "Galería de la Accademia, Florencia",
        "coordinates": {
            "lat": 43.777,
            "lng": 11.2594
        },
        "notes": "🎟️ El David de Miguel Ángel (~1h). Cierra lunes",
        "confirmed": false
    },
    {
        "type": "event",
        "title": "Duomo, Piazza della Signoria y Ponte Vecchio",
        "color": "indigo",
        "timezone": "Europe/Rome",
        "start": "2026-08-14T15:00:00",
        "end": "2026-08-14T18:30:00",
        "location": "Duomo de Florencia",
        "coordinates": {
            "lat": 43.7731,
            "lng": 11.256
        },
        "notes": "Exterior del Duomo (la subida a la cúpula queda para el sábado 15). Ponte Vecchio al atardecer. ⭐ Yessenia: mercado de cuero de San Lorenzo / Mercato Nuovo (regatear)"
    },
    {
        "type": "event",
        "title": "Cena bistecca alla fiorentina",
        "color": "emerald",
        "timezone": "Europe/Rome",
        "start": "2026-08-14T20:00:00",
        "end": "2026-08-14T22:00:00",
        "location": "Florencia",
        "coordinates": {
            "lat": 43.771,
            "lng": 11.2535
        },
        "notes": "Trattoria Dall'Oste o La Bistecca Osteria Fiorentina. ⭐ Adriana"
    },
    {
        "type": "event",
        "title": "Tren Florencia → Pisa",
        "color": "orange",
        "timezone": "Europe/Rome",
        "start": "2026-08-15T09:00:00",
        "end": "2026-08-15T10:00:00",
        "location": "Firenze Santa Maria Novella",
        "coordinates": {
            "lat": 43.7766,
            "lng": 11.248
        },
        "notes": "~1h. ⚠️ 15 ago = Ferragosto: multitudes y horarios de tren reducidos"
    },
    {
        "type": "event",
        "title": "Piazza dei Miracoli y Torre de Pisa",
        "color": "indigo",
        "timezone": "Europe/Rome",
        "start": "2026-08-15T10:00:00",
        "end": "2026-08-15T13:00:00",
        "location": "Piazza dei Miracoli, Pisa",
        "coordinates": {
            "lat": 43.723,
            "lng": 10.3966
        },
        "notes": "Torre inclinada (subida opcional), Catedral, Baptisterio. ~2–3h. Al aire libre, aguanta el feriado"
    },
    {
        "type": "event",
        "title": "Regreso a Florencia",
        "color": "orange",
        "timezone": "Europe/Rome",
        "start": "2026-08-15T13:30:00",
        "end": "2026-08-15T14:30:00",
        "location": "Pisa Centrale",
        "coordinates": {
            "lat": 43.7085,
            "lng": 10.3985
        }
    },
    {
        "type": "event",
        "title": "Cúpula de Brunelleschi o Campanile",
        "start": "2026-08-15T15:00:00",
        "end": "2026-08-15T16:15:00",
        "color": "indigo",
        "location": "Duomo de Florencia",
        "coordinates": {
            "lat": 43.7731,
            "lng": 11.256
        },
        "notes": "🎟️ Brunelleschi Pass con horario (reservar con anticipación, se agota). 463 escalones. Si no hay cupo: Campanile de Giotto",
        "timezone": "Europe/Rome",
        "confirmed": false
    },
    {
        "type": "event",
        "title": "Oltrarno: Palazzo Pitti, Boboli y vintage",
        "start": "2026-08-15T16:45:00",
        "end": "2026-08-15T19:00:00",
        "color": "indigo",
        "location": "Oltrarno, Florencia",
        "coordinates": {
            "lat": 43.7651,
            "lng": 11.2498
        },
        "notes": "Jardines de Boboli / Palazzo Pitti (última entrada ~18:30) + talleres artesanos y vintage en Oltrarno",
        "timezone": "Europe/Rome"
    },
    {
        "type": "event",
        "title": "Tren Florencia → Venecia",
        "color": "orange",
        "timezone": "Europe/Rome",
        "start": "2026-08-16T07:30:00",
        "end": "2026-08-16T09:45:00",
        "location": "Firenze Santa Maria Novella",
        "coordinates": {
            "lat": 43.7766,
            "lng": 11.248
        },
        "notes": "🎟️ Frecciarossa (~2h–2h15)",
        "confirmed": false
    },
    {
        "type": "event",
        "title": "Vaporetto por el Gran Canal y Puente de Rialto",
        "start": "2026-08-16T10:00:00",
        "end": "2026-08-16T11:15:00",
        "color": "cyan",
        "location": "Puente de Rialto, Venecia",
        "coordinates": {
            "lat": 45.438,
            "lng": 12.3359
        },
        "notes": "Línea 1 desde la estación: el Gran Canal es el paseo. Bajar en Rialto y seguir hasta San Marcos",
        "timezone": "Europe/Rome"
    },
    {
        "type": "event",
        "title": "Palacio Ducal",
        "start": "2026-08-16T11:30:00",
        "end": "2026-08-16T13:30:00",
        "color": "purple",
        "location": "Palacio Ducal, Venecia",
        "coordinates": {
            "lat": 45.4337,
            "lng": 12.3401
        },
        "notes": "🎟️ Reservar con horario. Sala del Maggior Consiglio y Puente de los Suspiros. ⭐ Yessenia (arte)",
        "timezone": "Europe/Rome",
        "confirmed": false
    },
    {
        "type": "event",
        "title": "Venecia: Basílica de San Marcos",
        "color": "indigo",
        "timezone": "Europe/Rome",
        "start": "2026-08-16T14:00:00",
        "end": "2026-08-16T17:00:00",
        "location": "Plaza San Marcos, Venecia",
        "coordinates": {
            "lat": 45.4341,
            "lng": 12.3388
        },
        "notes": "Abierta a turistas desde las 14:00 (domingo). Día tranquilo"
    },
    {
        "type": "event",
        "title": "Regreso a Florencia",
        "color": "orange",
        "timezone": "Europe/Rome",
        "start": "2026-08-16T18:00:00",
        "end": "2026-08-16T20:15:00",
        "location": "Venezia Santa Lucia",
        "coordinates": {
            "lat": 45.441,
            "lng": 12.3208
        }
    },
    {
        "type": "event",
        "title": "Tren Florencia → Roma",
        "color": "orange",
        "timezone": "Europe/Rome",
        "start": "2026-08-17T07:00:00",
        "end": "2026-08-17T08:40:00",
        "location": "Firenze Santa Maria Novella",
        "coordinates": {
            "lat": 43.7766,
            "lng": 11.248
        },
        "notes": "🎟️ Frecciarossa (~1h35). Llegan ~08:40",
        "confirmed": false
    },
    {
        "type": "event",
        "title": "Check-in y dejar maletas en Roma",
        "start": "2026-08-17T08:45:00",
        "end": "2026-08-17T09:30:00",
        "color": "green",
        "location": "Vicolo di Montevecchio 2, Roma",
        "timezone": "Europe/Rome",
        "coordinates": {
            "lat": 41.9003,
            "lng": 12.4712
        },
        "confirmed": true,
        "notes": "✅ Departamento reservado (17–20 ago): Vicolo di Montevecchio, 2 (junto a Piazza Navona)"
    },
    {
        "type": "event",
        "title": "Coliseo, Foro Romano y Palatino",
        "start": "2026-08-17T10:00:00",
        "end": "2026-08-17T13:30:00",
        "color": "indigo",
        "location": "Coliseo, Roma",
        "coordinates": {
            "lat": 41.8902,
            "lng": 12.4922
        },
        "notes": "🎟️ Entrada combinada con horario (reservar). ⭐ Omar (historia). Gorra y agua (agosto pega fuerte)",
        "timezone": "Europe/Rome",
        "confirmed": false
    },
    {
        "type": "event",
        "title": "Panteón, Piazza Navona y Campo de' Fiori",
        "start": "2026-08-17T16:00:00",
        "end": "2026-08-17T20:00:00",
        "color": "indigo",
        "location": "Panteón, Roma",
        "coordinates": {
            "lat": 41.8986,
            "lng": 12.4769
        },
        "notes": "A pie, tarde/noche",
        "timezone": "Europe/Rome"
    },
    {
        "type": "event",
        "title": "Museos Vaticanos y Capilla Sixtina",
        "start": "2026-08-18T08:30:00",
        "end": "2026-08-18T12:00:00",
        "color": "purple",
        "location": "Museos Vaticanos, Ciudad del Vaticano",
        "coordinates": {
            "lat": 41.9065,
            "lng": 12.4536
        },
        "notes": "🎟️ Reserva imprescindible, entrar temprano. ⭐ Yessenia (arte)",
        "timezone": "Europe/Rome",
        "confirmed": false
    },
    {
        "type": "event",
        "title": "Basílica de San Pedro",
        "start": "2026-08-18T12:00:00",
        "end": "2026-08-18T13:30:00",
        "color": "indigo",
        "location": "Basílica de San Pedro, Ciudad del Vaticano",
        "coordinates": {
            "lat": 41.9022,
            "lng": 12.4539
        },
        "notes": "Cúpula si hay ánimo",
        "timezone": "Europe/Rome"
    },
    {
        "type": "event",
        "title": "Castel Sant'Angelo y orilla del Tíber",
        "start": "2026-08-18T15:30:00",
        "end": "2026-08-18T18:00:00",
        "color": "indigo",
        "location": "Castel Sant'Angelo, Roma",
        "coordinates": {
            "lat": 41.9031,
            "lng": 12.4663
        },
        "notes": "Tarde suave",
        "timezone": "Europe/Rome"
    },
    {
        "type": "event",
        "title": "Fontana di Trevi y Plaza de España",
        "start": "2026-08-19T09:30:00",
        "end": "2026-08-19T11:30:00",
        "color": "indigo",
        "location": "Fontana di Trevi, Roma",
        "coordinates": {
            "lat": 41.9009,
            "lng": 12.4833
        },
        "notes": "Día relajado. Tiren la moneda",
        "timezone": "Europe/Rome"
    },
    {
        "type": "event",
        "title": "Galería Borghese",
        "start": "2026-08-19T13:00:00",
        "end": "2026-08-19T15:00:00",
        "color": "purple",
        "location": "Galería Borghese, Roma",
        "coordinates": {
            "lat": 41.9142,
            "lng": 12.492
        },
        "notes": "🎟️ Reserva obligatoria con horario. Bernini, Caravaggio. ⭐ Yessenia (arte)",
        "timezone": "Europe/Rome",
        "confirmed": false
    },
    {
        "type": "event",
        "title": "Vintage en Monti",
        "start": "2026-08-19T15:30:00",
        "end": "2026-08-19T18:00:00",
        "color": "pink",
        "location": "Barrio Monti, Roma",
        "coordinates": {
            "lat": 41.8951,
            "lng": 12.4944
        },
        "notes": "⭐ Yessenia: Blue Goose, Pifebo (streetwear), Humana Vintage Monti",
        "timezone": "Europe/Rome"
    },
    {
        "type": "event",
        "title": "Cena en Trastevere",
        "start": "2026-08-19T20:00:00",
        "end": "2026-08-19T22:00:00",
        "color": "emerald",
        "location": "Trastevere, Roma",
        "coordinates": {
            "lat": 41.8896,
            "lng": 12.4694
        },
        "notes": "Nannarella (cacio e pepe/carbonara) o Trattoria Da Enzo. ⭐ Adriana",
        "timezone": "Europe/Rome"
    },
    {
        "type": "event",
        "title": "Tren Roma → Milán",
        "start": "2026-08-20T08:00:00",
        "end": "2026-08-20T11:00:00",
        "color": "orange",
        "location": "Roma Termini",
        "coordinates": {
            "lat": 41.901,
            "lng": 12.5018
        },
        "notes": "🎟️ Frecciarossa (~3h). Llegan ~11:00",
        "timezone": "Europe/Rome",
        "confirmed": false
    },
    {
        "type": "event",
        "title": "Instalación final y almuerzo de despedida en Milán",
        "start": "2026-08-20T12:00:00",
        "end": "2026-08-20T16:00:00",
        "color": "emerald",
        "location": "Milán",
        "coordinates": {
            "lat": 45.4642,
            "lng": 9.19
        },
        "notes": "Dejan todo listo en el depa de Diego y Adriana. Fotos, despedida",
        "timezone": "Europe/Rome"
    },
    {
        "type": "event",
        "title": "Traslado al aeropuerto de Milán",
        "start": "2026-08-20T16:30:00",
        "end": "2026-08-20T17:30:00",
        "color": "orange",
        "location": "Milán",
        "timezone": "Europe/Rome"
    },
    {
        "type": "event",
        "title": "Vuelo Milán → París (CDG)",
        "start": "2026-08-20T18:30:00",
        "end": "2026-08-20T20:15:00",
        "color": "orange",
        "location": "Aeropuerto de Milán",
        "coordinates": {
            "lat": 45.6306,
            "lng": 8.7281
        },
        "notes": "🎟️ Omar, Lucy y Yessenia (~1h45). Idealmente llega a CDG",
        "timezone": "Europe/Rome",
        "confirmed": false
    },
    {
        "type": "event",
        "title": "Llegada a CDG y hotel en la terminal",
        "color": "green",
        "timezone": "Europe/Paris",
        "start": "2026-08-20T20:30:00",
        "end": "2026-08-20T21:30:00",
        "location": "Aeropuerto Charles de Gaulle (CDG)",
        "coordinates": {
            "lat": 49.0097,
            "lng": 2.5478
        },
        "notes": "🏨 Duermen en el hotel dentro de la misma terminal de CDG (no salen del aeropuerto)",
        "confirmed": false
    },
    {
        "type": "event",
        "title": "Vuelo CDG → Lima",
        "color": "red",
        "timezone": "Europe/Paris",
        "start": "2026-08-21T05:00:00",
        "end": "2026-08-21T05:30:00",
        "location": "Aeropuerto Charles de Gaulle (CDG)",
        "coordinates": {
            "lat": 49.0097,
            "lng": 2.5478
        },
        "notes": "🎟️ Counter ~3:00 AM. Fin del viaje para Omar, Lucy y Yessenia. Diego y Adriana se quedan en Milán 🎉",
        "confirmed": false
    }
]
